<?xml version="1.0" encoding="UTF-8"?>
<states>
<state>
    <id>4017</id>
    <name>Andhra Pradesh</name>
    <country_id>101</country_id>
    <country_code>IN</country_code>
    <country_name>India</country_name>
    <state_code>AP</state_code>
    <type>state</type>
    <latitude>15.91289980</latitude>
    <longitude>79.73998750</longitude>
  </state>
  <state>
    <id>4024</id>
    <name>Arunachal Pradesh</name>
    <country_id>101</country_id>
    <country_code>IN</country_code>
    <country_name>India</country_name>
    <state_code>AR</state_code>
    <type>state</type>
    <latitude>28.21799940</latitude>
    <longitude>94.72775280</longitude>
  </state>
  <state>
    <id>4027</id>
    <name>Assam</name>
    <country_id>101</country_id>
    <country_code>IN</country_code>
    <country_name>India</country_name>
    <state_code>AS</state_code>
    <type>state</type>
    <latitude>26.20060430</latitude>
    <longitude>92.93757390</longitude>
  </state>
  <state>
    <id>4037</id>
    <name>Bihar</name>
    <country_id>101</country_id>
    <country_code>IN</country_code>
    <country_name>India</country_name>
    <state_code>BR</state_code>
    <type>state</type>
    <latitude>25.09607420</latitude>
    <longitude>85.31311940</longitude>
  </state>
  <state>
    <id>4031</id>
    <name>Chandigarh</name>
    <country_id>101</country_id>
    <country_code>IN</country_code>
    <country_name>India</country_name>
    <state_code>CH</state_code>
    <type>Union territory</type>
    <latitude>30.73331480</latitude>
    <longitude>76.77941790</longitude>
  </state>
  <state>
    <id>4040</id>
    <name>Chhattisgarh</name>
    <country_id>101</country_id>
    <country_code>IN</country_code>
    <country_name>India</country_name>
    <state_code>CT</state_code>
    <type>state</type>
    <latitude>21.27865670</latitude>
    <longitude>81.86614420</longitude>
  </state>
  <state>
    <id>4033</id>
    <name>Dadra and Nagar Haveli and Daman and Diu</name>
    <country_id>101</country_id>
    <country_code>IN</country_code>
    <country_name>India</country_name>
    <state_code>DH</state_code>
    <type>Union territory</type>
    <latitude>20.39737360</latitude>
    <longitude>72.83279910</longitude>
  </state>
  <state>
    <id>4021</id>
    <name>Delhi</name>
    <country_id>101</country_id>
    <country_code>IN</country_code>
    <country_name>India</country_name>
    <state_code>DL</state_code>
    <type>Union territory</type>
    <latitude>28.70405920</latitude>
    <longitude>77.10249020</longitude>
  </state>
  <state>
    <id>4009</id>
    <name>Goa</name>
    <country_id>101</country_id>
    <country_code>IN</country_code>
    <country_name>India</country_name>
    <state_code>GA</state_code>
    <type>state</type>
    <latitude>15.29932650</latitude>
    <longitude>74.12399600</longitude>
  </state>
  <state>
    <id>4030</id>
    <name>Gujarat</name>
    <country_id>101</country_id>
    <country_code>IN</country_code>
    <country_name>India</country_name>
    <state_code>GJ</state_code>
    <type>state</type>
    <latitude>22.25865200</latitude>
    <longitude>71.19238050</longitude>
  </state>
  <state>
    <id>4007</id>
    <name>Haryana</name>
    <country_id>101</country_id>
    <country_code>IN</country_code>
    <country_name>India</country_name>
    <state_code>HR</state_code>
    <type>state</type>
    <latitude>29.05877570</latitude>
    <longitude>76.08560100</longitude>
  </state>
  <state>
    <id>4020</id>
    <name>Himachal Pradesh</name>
    <country_id>101</country_id>
    <country_code>IN</country_code>
    <country_name>India</country_name>
    <state_code>HP</state_code>
    <type>state</type>
    <latitude>31.10482940</latitude>
    <longitude>77.17339010</longitude>
  </state>
  <state>
    <id>4029</id>
    <name>Jammu and Kashmir</name>
    <country_id>101</country_id>
    <country_code>IN</country_code>
    <country_name>India</country_name>
    <state_code>JK</state_code>
    <type>Union territory</type>
    <latitude>33.27783900</latitude>
    <longitude>75.34121790</longitude>
  </state>
  <state>
    <id>4025</id>
    <name>Jharkhand</name>
    <country_id>101</country_id>
    <country_code>IN</country_code>
    <country_name>India</country_name>
    <state_code>JH</state_code>
    <type>state</type>
    <latitude>23.61018080</latitude>
    <longitude>85.27993540</longitude>
  </state>
  <state>
    <id>4026</id>
    <name>Karnataka</name>
    <country_id>101</country_id>
    <country_code>IN</country_code>
    <country_name>India</country_name>
    <state_code>KA</state_code>
    <type>state</type>
    <latitude>15.31727750</latitude>
    <longitude>75.71388840</longitude>
  </state>
  <state>
    <id>4028</id>
    <name>Kerala</name>
    <country_id>101</country_id>
    <country_code>IN</country_code>
    <country_name>India</country_name>
    <state_code>KL</state_code>
    <type>state</type>
    <latitude>10.85051590</latitude>
    <longitude>76.27108330</longitude>
  </state>
  <state>
    <id>4852</id>
    <name>Ladakh</name>
    <country_id>101</country_id>
    <country_code>IN</country_code>
    <country_name>India</country_name>
    <state_code>LA</state_code>
    <type>Union territory</type>
    <latitude>34.22684750</latitude>
    <longitude>77.56194190</longitude>
  </state>
  <state>
    <id>4019</id>
    <name>Lakshadweep</name>
    <country_id>101</country_id>
    <country_code>IN</country_code>
    <country_name>India</country_name>
    <state_code>LD</state_code>
    <type>Union territory</type>
    <latitude>10.32802650</latitude>
    <longitude>72.78463360</longitude>
  </state>
  <state>
    <id>4039</id>
    <name>Madhya Pradesh</name>
    <country_id>101</country_id>
    <country_code>IN</country_code>
    <country_name>India</country_name>
    <state_code>MP</state_code>
    <type>state</type>
    <latitude>22.97342290</latitude>
    <longitude>78.65689420</longitude>
  </state>
  <state>
    <id>4008</id>
    <name>Maharashtra</name>
    <country_id>101</country_id>
    <country_code>IN</country_code>
    <country_name>India</country_name>
    <state_code>MH</state_code>
    <type>state</type>
    <latitude>19.75147980</latitude>
    <longitude>75.71388840</longitude>
  </state>
  <state>
    <id>4010</id>
    <name>Manipur</name>
    <country_id>101</country_id>
    <country_code>IN</country_code>
    <country_name>India</country_name>
    <state_code>MN</state_code>
    <type>state</type>
    <latitude>24.66371730</latitude>
    <longitude>93.90626880</longitude>
  </state>
  <state>
    <id>4006</id>
    <name>Meghalaya</name>
    <country_id>101</country_id>
    <country_code>IN</country_code>
    <country_name>India</country_name>
    <state_code>ML</state_code>
    <type>state</type>
    <latitude>25.46703080</latitude>
    <longitude>91.36621600</longitude>
  </state>
  <state>
    <id>4036</id>
    <name>Mizoram</name>
    <country_id>101</country_id>
    <country_code>IN</country_code>
    <country_name>India</country_name>
    <state_code>MZ</state_code>
    <type>state</type>
    <latitude>23.16454300</latitude>
    <longitude>92.93757390</longitude>
  </state>
  <state>
    <id>4018</id>
    <name>Nagaland</name>
    <country_id>101</country_id>
    <country_code>IN</country_code>
    <country_name>India</country_name>
    <state_code>NL</state_code>
    <type>state</type>
    <latitude>26.15843540</latitude>
    <longitude>94.56244260</longitude>
  </state>
  <state>
    <id>4013</id>
    <name>Odisha</name>
    <country_id>101</country_id>
    <country_code>IN</country_code>
    <country_name>India</country_name>
    <state_code>OR</state_code>
    <type>state</type>
    <latitude>20.95166580</latitude>
    <longitude>85.09852360</longitude>
  </state>
  <state>
    <id>4011</id>
    <name>Puducherry</name>
    <country_id>101</country_id>
    <country_code>IN</country_code>
    <country_name>India</country_name>
    <state_code>PY</state_code>
    <type>Union territory</type>
    <latitude>11.94159150</latitude>
    <longitude>79.80831330</longitude>
  </state>
  <state>
    <id>4015</id>
    <name>Punjab</name>
    <country_id>101</country_id>
    <country_code>IN</country_code>
    <country_name>India</country_name>
    <state_code>PB</state_code>
    <type>state</type>
    <latitude>31.14713050</latitude>
    <longitude>75.34121790</longitude>
  </state>
  <state>
    <id>4014</id>
    <name>Rajasthan</name>
    <country_id>101</country_id>
    <country_code>IN</country_code>
    <country_name>India</country_name>
    <state_code>RJ</state_code>
    <type>state</type>
    <latitude>27.02380360</latitude>
    <longitude>74.21793260</longitude>
  </state>
  <state>
    <id>4034</id>
    <name>Sikkim</name>
    <country_id>101</country_id>
    <country_code>IN</country_code>
    <country_name>India</country_name>
    <state_code>SK</state_code>
    <type>state</type>
    <latitude>27.53297180</latitude>
    <longitude>88.51221780</longitude>
  </state>
  <state>
    <id>4035</id>
    <name>Tamil Nadu</name>
    <country_id>101</country_id>
    <country_code>IN</country_code>
    <country_name>India</country_name>
    <state_code>TN</state_code>
    <type>state</type>
    <latitude>11.12712250</latitude>
    <longitude>78.65689420</longitude>
  </state>
  <state>
    <id>4012</id>
    <name>Telangana</name>
    <country_id>101</country_id>
    <country_code>IN</country_code>
    <country_name>India</country_name>
    <state_code>TG</state_code>
    <type>state</type>
    <latitude>18.11243720</latitude>
    <longitude>79.01929970</longitude>
  </state>
  <state>
    <id>4038</id>
    <name>Tripura</name>
    <country_id>101</country_id>
    <country_code>IN</country_code>
    <country_name>India</country_name>
    <state_code>TR</state_code>
    <type>state</type>
    <latitude>23.94084820</latitude>
    <longitude>91.98815270</longitude>
  </state>
  <state>
    <id>4022</id>
    <name>Uttar Pradesh</name>
    <country_id>101</country_id>
    <country_code>IN</country_code>
    <country_name>India</country_name>
    <state_code>UP</state_code>
    <type>state</type>
    <latitude>26.84670880</latitude>
    <longitude>80.94615920</longitude>
  </state>
  <state>
    <id>4016</id>
    <name>Uttarakhand</name>
    <country_id>101</country_id>
    <country_code>IN</country_code>
    <country_name>India</country_name>
    <state_code>UT</state_code>
    <type>state</type>
    <latitude>30.06675300</latitude>
    <longitude>79.01929970</longitude>
  </state>
  <state>
    <id>4853</id>
    <name>West Bengal</name>
    <country_id>101</country_id>
    <country_code>IN</country_code>
    <country_name>India</country_name>
    <state_code>WB</state_code>
    <type>state</type>
    <latitude>22.98675690</latitude>
    <longitude>87.85497550</longitude>
  </state>
  </states>
